<?xml version="1.0" encoding="utf-8"?>
<ArrayOfVolunteer xmlns:xsi="http://www.w3.org/2001/XMLSchema-instance" xmlns:xsd="http://www.w3.org/2001/XMLSchema">
  <Volunteer>
    <Id>338898643</Id>
    <FullName>Jane Smith</FullName>
    <Phone>0529876543</Phone>
    <Email>jane@example.com</Email>
    <CurrentAddress>Jerusalem</CurrentAddress>
    <Latitude>31.7683</Latitude>
    <Longitude>35.2137</Longitude>
    <Role>Volunteer</Role>
    <IsActive>true</IsActive>
    <MaxDistance>7</MaxDistance>
    <DistanceType>Air</DistanceType>
  </Volunteer>
  <Volunteer>
    <Id>273449865</Id>
    <FullName>Michael Brown</FullName>
    <Phone>0534567890</Phone>
    <Email>michael@example.com</Email>
    <CurrentAddress>Haifa</CurrentAddress>
    <Latitude>32.794</Latitude>
    <Longitude>34.9896</Longitude>
    <Role>Volunteer</Role>
    <IsActive>true</IsActive>
    <MaxDistance>15</MaxDistance>
    <DistanceType>Air</DistanceType>
  </Volunteer>
  <Volunteer>
    <Id>281440939</Id>
    <FullName>Daniel Johnson</FullName>
    <Phone>0557894321</Phone>
    <Email>daniel@example.com</Email>
    <CurrentAddress>Jerusalem</CurrentAddress>
    <Latitude>31.7683</Latitude>
    <Longitude>35.2137</Longitude>
    <Role>Volunteer</Role>
    <IsActive>true</IsActive>
    <MaxDistance>36</MaxDistance>
    <DistanceType>Air</DistanceType>
  </Volunteer>
  <Volunteer>
    <Id>296261714</Id>
    <FullName>Sarah Davis</FullName>
    <Phone>0561236547</Phone>
    <Email>sarah@example.com</Email>
    <CurrentAddress>Haifa</CurrentAddress>
    <Latitude>32.794</Latitude>
    <Longitude>34.9896</Longitude>
    <Role>Volunteer</Role>
    <IsActive>true</IsActive>
    <MaxDistance>13</MaxDistance>
    <DistanceType>Air</DistanceType>
  </Volunteer>
  <Volunteer>
    <Id>245389955</Id>
    <FullName>David Wilson</FullName>
    <Phone>0576543210</Phone>
    <Email>david@example.com</Email>
    <CurrentAddress>Tel Aviv</CurrentAddress>
    <Latitude>32.0853</Latitude>
    <Longitude>34.7818</Longitude>
    <Role>Volunteer</Role>
    <IsActive>true</IsActive>
    <MaxDistance>7</MaxDistance>
    <DistanceType>Air</DistanceType>
  </Volunteer>
  <Volunteer>
    <Id>240724442</Id>
    <FullName>Jessica Martinez</FullName>
    <Phone>0584321987</Phone>
    <Email>jessica@example.com</Email>
    <CurrentAddress>Jerusalem</CurrentAddress>
    <Latitude>31.7683</Latitude>
    <Longitude>35.2137</Longitude>
    <Role>Volunteer</Role>
    <IsActive>true</IsActive>
    <MaxDistance>14</MaxDistance>
    <DistanceType>Air</DistanceType>
  </Volunteer>
  <Volunteer>
    <Id>327778586</Id>
    <FullName>James Anderson</FullName>
    <Phone>0591238765</Phone>
    <Email>james@example.com</Email>
    <CurrentAddress>Haifa</CurrentAddress>
    <Latitude>32.794</Latitude>
    <Longitude>34.9896</Longitude>
    <Role>Volunteer</Role>
    <IsActive>true</IsActive>
    <MaxDistance>18</MaxDistance>
    <DistanceType>Air</DistanceType>
  </Volunteer>
  <Volunteer>
    <Id>281864409</Id>
    <FullName>Laura Thomas</FullName>
    <Phone>0524567891</Phone>
    <Email>laura@example.com</Email>
    <CurrentAddress>Tel Aviv</CurrentAddress>
    <Latitude>32.0853</Latitude>
    <Longitude>34.7818</Longitude>
    <Role>Volunteer</Role>
    <IsActive>true</IsActive>
    <MaxDistance>21</MaxDistance>
    <DistanceType>Air</DistanceType>
  </Volunteer>
  <Volunteer>
    <Id>325264500</Id>
    <FullName>Chris Taylor</FullName>
    <Phone>0537891234</Phone>
    <Email>chris@example.com</Email>
    <CurrentAddress>Jerusalem</CurrentAddress>
    <Latitude>31.7683</Latitude>
    <Longitude>35.2137</Longitude>
    <Role>Volunteer</Role>
    <IsActive>true</IsActive>
    <MaxDistance>17</MaxDistance>
    <DistanceType>Air</DistanceType>
  </Volunteer>
  <Volunteer>
    <Id>322669275</Id>
    <FullName>Sophia Lee</FullName>
    <Phone>0549876123</Phone>
    <Email>sophia@example.com</Email>
    <CurrentAddress>Haifa</CurrentAddress>
    <Latitude>32.794</Latitude>
    <Longitude>34.9896</Longitude>
    <Role>Volunteer</Role>
    <IsActive>true</IsActive>
    <MaxDistance>10</MaxDistance>
    <DistanceType>Air</DistanceType>
  </Volunteer>
  <Volunteer>
    <Id>214778645</Id>
    <FullName>Brian Harris</FullName>
    <Phone>0553219876</Phone>
    <Email>brian@example.com</Email>
    <CurrentAddress>Tel Aviv</CurrentAddress>
    <Latitude>32.0853</Latitude>
    <Longitude>34.7818</Longitude>
    <Role>Volunteer</Role>
    <IsActive>true</IsActive>
    <MaxDistance>23</MaxDistance>
    <DistanceType>Air</DistanceType>
  </Volunteer>
  <Volunteer>
    <Id>214052542</Id>
    <FullName>Olivia Moore</FullName>
    <Phone>0506785432</Phone>
    <Email>olivia@example.com</Email>
    <CurrentAddress>Jerusalem</CurrentAddress>
    <Latitude>31.7683</Latitude>
    <Longitude>35.2137</Longitude>
    <Role>Volunteer</Role>
    <IsActive>true</IsActive>
    <MaxDistance>27</MaxDistance>
    <DistanceType>Air</DistanceType>
  </Volunteer>
  <Volunteer>
    <Id>351480949</Id>
    <FullName>Matthew Clark</FullName>
    <Phone>0512345678</Phone>
    <Email>matthew@example.com</Email>
    <CurrentAddress>Haifa</CurrentAddress>
    <Latitude>32.794</Latitude>
    <Longitude>34.9896</Longitude>
    <Role>Volunteer</Role>
    <IsActive>true</IsActive>
    <MaxDistance>18</MaxDistance>
    <DistanceType>Air</DistanceType>
  </Volunteer>
  <Volunteer>
    <Id>15482979</Id>
    <FullName>Ariel Suli</FullName>
    <Phone>0527665514</Phone>
    <Email>ARI@gmail.com</Email>
    <Password>37f3451ea1663e502ee9d22c103c28ee8067f5993e9fe5ef927f597b02df6bbf</Password>
    <CurrentAddress> Hillel , Jerusalem</CurrentAddress>
    <Latitude>31.7815</Latitude>
    <Longitude>35.2206</Longitude>
    <Role>Volunteer</Role>
    <IsActive>true</IsActive>
    <MaxDistance>15</MaxDistance>
    <DistanceType>Air</DistanceType>
  </Volunteer>
  <Volunteer>
    <Id>214994980</Id>
    <FullName>Avital Attiah</FullName>
    <Phone>0527665515</Phone>
    <Email>avitala5515@gmail.com</Email>
    <Password>c3a6d009900f236413488bbf004daf0a832a9000baf704a9dfa4afb258e6e256</Password>
    <CurrentAddress>Haifa</CurrentAddress>
    <Latitude>32.794</Latitude>
    <Longitude>34.9896</Longitude>
    <Role>Manager</Role>
    <IsActive>true</IsActive>
    <MaxDistance>55</MaxDistance>
    <DistanceType>Car</DistanceType>
  </Volunteer>
  <Volunteer>
    <Id>123456782</Id>
    <FullName>Tamar Varon</FullName>
    <Phone>0528222432</Phone>
    <Email>Tamar@gmail.com</Email>
    <Password>88a8418873f5b57fb0ca160d34a48d53b9d3b23f13a60e6bf0e3885da3c21aec</Password>
    <CurrentAddress> Hillel , Jerusalem</CurrentAddress>
    <Latitude>31.7815</Latitude>
    <Longitude>35.2206</Longitude>
    <Role>Manager</Role>
    <IsActive>true</IsActive>
    <MaxDistance>100</MaxDistance>
    <DistanceType>Air</DistanceType>
  </Volunteer>
  <Volunteer>
    <Id>59294348</Id>
    <FullName>Noa Cohen</FullName>
    <Phone>0528222432</Phone>
    <Email>Noa@gmail.com</Email>
    <Password>393d72ab74e28f6778d263107b882c72ac969dee0a444d5b75a6f4a5c7462e70</Password>
    <CurrentAddress>Jerusalem</CurrentAddress>
    <Latitude>31.771959</Latitude>
    <Longitude>35.217018</Longitude>
    <Role>Manager</Role>
    <IsActive>true</IsActive>
    <MaxDistance>12</MaxDistance>
    <DistanceType>Car</DistanceType>
  </Volunteer>
  <Volunteer>
    <Id>58667395</Id>
    <FullName>Yehuda Levi</FullName>
    <Phone>0556701967</Phone>
    <Email>YYY@gmail.com</Email>
    <Password>848477015fb8cb942f5329bd60284520b43bffcdc64fd6e03ab6f267a2a6cf03</Password>
    <CurrentAddress> Nazareth</CurrentAddress>
    <Latitude>50.959802</Latitude>
    <Longitude>3.5963218</Longitude>
    <Role>Manager</Role>
    <IsActive>true</IsActive>
    <MaxDistance>16</MaxDistance>
    <DistanceType>Air</DistanceType>
  </Volunteer>
  <Volunteer>
    <Id>393965751</Id>
    <FullName>John Doe</FullName>
    <Phone>0501234567</Phone>
    <Email>john@example.com</Email>
    <Password>5194157d7b20fef1e234e4229102e6afdf0208bed6a21d58da391c2044f8d05e</Password>
    <CurrentAddress>Tel Aviv</CurrentAddress>
    <Latitude>32.0853</Latitude>
    <Longitude>34.7818</Longitude>
    <Role>Manager</Role>
    <IsActive>true</IsActive>
    <MaxDistance>32</MaxDistance>
    <DistanceType>Air</DistanceType>
  </Volunteer>
  <Volunteer>
    <Id>374990700</Id>
    <FullName>Emily White</FullName>
    <Phone>0541239876</Phone>
    <Email>emily@example.com</Email>
    <Password>665778d184c8e06c70d957c9f1880ddf31664cd3438f670c60108ee921e6c11f</Password>
    <CurrentAddress>Tel Aviv</CurrentAddress>
    <Latitude>32.0853</Latitude>
    <Longitude>34.7818</Longitude>
    <Role>Volunteer</Role>
    <IsActive>true</IsActive>
    <MaxDistance>41</MaxDistance>
    <DistanceType>Air</DistanceType>
  </Volunteer>
</ArrayOfVolunteer>