<?xml version="1.0" encoding="utf-8"?>
<ArrayOfVolunteer xmlns:xsi="http://www.w3.org/2001/XMLSchema-instance" xmlns:xsd="http://www.w3.org/2001/XMLSchema">
  <Volunteer>
    <Id>338898643</Id>
    <FullName>Jane Smith</FullName>
    <Phone>0529876543</Phone>
    <Email>jane@example.com</Email>
    <CurrentAddress>Jerusalem</CurrentAddress>
    <Latitude>31.7683</Latitude>
    <Longitude>35.2137</Longitude>
    <Role>Volunteer</Role>
    <IsActive>true</IsActive>
    <MaxDistance>7</MaxDistance>
    <DistanceType>Air</DistanceType>
  </Volunteer>
  <Volunteer>
    <Id>273449865</Id>
    <FullName>Michael Brown</FullName>
    <Phone>0534567890</Phone>
    <Email>michael@example.com</Email>
    <CurrentAddress>Haifa</CurrentAddress>
    <Latitude>32.794</Latitude>
    <Longitude>34.9896</Longitude>
    <Role>Volunteer</Role>
    <IsActive>true</IsActive>
    <MaxDistance>15</MaxDistance>
    <DistanceType>Air</DistanceType>
  </Volunteer>
  <Volunteer>
    <Id>281440939</Id>
    <FullName>Daniel Johnson</FullName>
    <Phone>0557894321</Phone>
    <Email>daniel@example.com</Email>
    <CurrentAddress>Jerusalem</CurrentAddress>
    <Latitude>31.7683</Latitude>
    <Longitude>35.2137</Longitude>
    <Role>Volunteer</Role>
    <IsActive>true</IsActive>
    <MaxDistance>36</MaxDistance>
    <DistanceType>Air</DistanceType>
  </Volunteer>
  <Volunteer>
    <Id>296261714</Id>
    <FullName>Sarah Davis</FullName>
    <Phone>0561236547</Phone>
    <Email>sarah@example.com</Email>
    <CurrentAddress>Haifa</CurrentAddress>
    <Latitude>32.794</Latitude>
    <Longitude>34.9896</Longitude>
    <Role>Volunteer</Role>
    <IsActive>true</IsActive>
    <MaxDistance>13</MaxDistance>
    <DistanceType>Air</DistanceType>
  </Volunteer>
  <Volunteer>
    <Id>245389955</Id>
    <FullName>David Wilson</FullName>
    <Phone>0576543210</Phone>
    <Email>david@example.com</Email>
    <CurrentAddress>Tel Aviv</CurrentAddress>
    <Latitude>32.0853</Latitude>
    <Longitude>34.7818</Longitude>
    <Role>Volunteer</Role>
    <IsActive>true</IsActive>
    <MaxDistance>7</MaxDistance>
    <DistanceType>Air</DistanceType>
  </Volunteer>
  <Volunteer>
    <Id>240724442</Id>
    <FullName>Jessica Martinez</FullName>
    <Phone>0584321987</Phone>
    <Email>jessica@example.com</Email>
    <CurrentAddress>Jerusalem</CurrentAddress>
    <Latitude>31.7683</Latitude>
    <Longitude>35.2137</Longitude>
    <Role>Volunteer</Role>
    <IsActive>true</IsActive>
    <MaxDistance>14</MaxDistance>
    <DistanceType>Air</DistanceType>
  </Volunteer>
  <Volunteer>
    <Id>327778586</Id>
    <FullName>James Anderson</FullName>
    <Phone>0591238765</Phone>
    <Email>james@example.com</Email>
    <CurrentAddress>Haifa</CurrentAddress>
    <Latitude>32.794</Latitude>
    <Longitude>34.9896</Longitude>
    <Role>Volunteer</Role>
    <IsActive>true</IsActive>
    <MaxDistance>18</MaxDistance>
    <DistanceType>Air</DistanceType>
  </Volunteer>
  <Volunteer>
    <Id>281864409</Id>
    <FullName>Laura Thomas</FullName>
    <Phone>0524567891</Phone>
    <Email>laura@example.com</Email>
    <CurrentAddress>Tel Aviv</CurrentAddress>
    <Latitude>32.0853</Latitude>
    <Longitude>34.7818</Longitude>
    <Role>Volunteer</Role>
    <IsActive>true</IsActive>
    <MaxDistance>21</MaxDistance>
    <DistanceType>Air</DistanceType>
  </Volunteer>
  <Volunteer>
    <Id>325264500</Id>
    <FullName>Chris Taylor</FullName>
    <Phone>0537891234</Phone>
    <Email>chris@example.com</Email>
    <CurrentAddress>Jerusalem</CurrentAddress>
    <Latitude>31.7683</Latitude>
    <Longitude>35.2137</Longitude>
    <Role>Volunteer</Role>
    <IsActive>true</IsActive>
    <MaxDistance>17</MaxDistance>
    <DistanceType>Air</DistanceType>
  </Volunteer>
  <Volunteer>
    <Id>322669275</Id>
    <FullName>Sophia Lee</FullName>
    <Phone>0549876123</Phone>
    <Email>sophia@example.com</Email>
    <CurrentAddress>Haifa</CurrentAddress>
    <Latitude>32.794</Latitude>
    <Longitude>34.9896</Longitude>
    <Role>Volunteer</Role>
    <IsActive>true</IsActive>
    <MaxDistance>10</MaxDistance>
    <DistanceType>Air</DistanceType>
  </Volunteer>
  <Volunteer>
    <Id>214052542</Id>
    <FullName>Olivia Moore</FullName>
    <Phone>0506785432</Phone>
    <Email>olivia@example.com</Email>
    <CurrentAddress>Jerusalem</CurrentAddress>
    <Latitude>31.7683</Latitude>
    <Longitude>35.2137</Longitude>
    <Role>Volunteer</Role>
    <IsActive>true</IsActive>
    <MaxDistance>27</MaxDistance>
    <DistanceType>Air</DistanceType>
  </Volunteer>
  <Volunteer>
    <Id>351480949</Id>
    <FullName>Matthew Clark</FullName>
    <Phone>0512345678</Phone>
    <Email>matthew@example.com</Email>
    <CurrentAddress>Haifa</CurrentAddress>
    <Latitude>32.794</Latitude>
    <Longitude>34.9896</Longitude>
    <Role>Volunteer</Role>
    <IsActive>true</IsActive>
    <MaxDistance>18</MaxDistance>
    <DistanceType>Air</DistanceType>
  </Volunteer>
  <Volunteer>
    <Id>123456782</Id>
    <FullName>Tamar Varon</FullName>
    <Phone>0528222432</Phone>
    <Email>Tamar@gmail.com</Email>
    <Password>88a8418873f5b57fb0ca160d34a48d53b9d3b23f13a60e6bf0e3885da3c21aec</Password>
    <CurrentAddress> Hillel , Jerusalem</CurrentAddress>
    <Latitude>31.7815</Latitude>
    <Longitude>35.2206</Longitude>
    <Role>Manager</Role>
    <IsActive>true</IsActive>
    <MaxDistance>100</MaxDistance>
    <DistanceType>Air</DistanceType>
  </Volunteer>
  <Volunteer>
    <Id>59294348</Id>
    <FullName>Noa Cohen</FullName>
    <Phone>0528222432</Phone>
    <Email>Noa@gmail.com</Email>
    <Password>393d72ab74e28f6778d263107b882c72ac969dee0a444d5b75a6f4a5c7462e70</Password>
    <CurrentAddress>Jerusalem</CurrentAddress>
    <Latitude>31.771959</Latitude>
    <Longitude>35.217018</Longitude>
    <Role>Manager</Role>
    <IsActive>true</IsActive>
    <MaxDistance>12</MaxDistance>
    <DistanceType>Car</DistanceType>
  </Volunteer>
  <Volunteer>
    <Id>393965751</Id>
    <FullName>John Doe</FullName>
    <Phone>0501234567</Phone>
    <Email>john@example.com</Email>
    <Password>5194157d7b20fef1e234e4229102e6afdf0208bed6a21d58da391c2044f8d05e</Password>
    <CurrentAddress>Tel Aviv</CurrentAddress>
    <Latitude>32.0853</Latitude>
    <Longitude>34.7818</Longitude>
    <Role>Manager</Role>
    <IsActive>true</IsActive>
    <MaxDistance>32</MaxDistance>
    <DistanceType>Air</DistanceType>
  </Volunteer>
  <Volunteer>
    <Id>374990700</Id>
    <FullName>Emily White</FullName>
    <Phone>0541239876</Phone>
    <Email>emily@example.com</Email>
    <Password>665778d184c8e06c70d957c9f1880ddf31664cd3438f670c60108ee921e6c11f</Password>
    <CurrentAddress>Tel Aviv</CurrentAddress>
    <Latitude>32.0853</Latitude>
    <Longitude>34.7818</Longitude>
    <Role>Volunteer</Role>
    <IsActive>true</IsActive>
    <MaxDistance>41</MaxDistance>
    <DistanceType>Air</DistanceType>
  </Volunteer>
  <Volunteer>
    <Id>211770581</Id>
    <FullName>Lea Dan</FullName>
    <Phone>0527676755</Phone>
    <Email>lea@gmail.com</Email>
    <Password>51fcf2d1879dc17aa22a6d5c378ce75f4580e25d3288c082397b5ac1d29ae71e</Password>
    <CurrentAddress>Jabotinsky St 1, Tel Aviv</CurrentAddress>
    <Latitude xsi:nil="true" />
    <Longitude xsi:nil="true" />
    <Role>Manager</Role>
    <IsActive>true</IsActive>
    <MaxDistance>12</MaxDistance>
    <DistanceType>Air</DistanceType>
  </Volunteer>
  <Volunteer>
    <Id>328218730</Id>
    <FullName>Elish Tzemach</FullName>
    <Phone>05483210654</Phone>
    <Email>EEE@gmail.com</Email>
    <Password>3228f890d294bd875293d2c742d5c99d013fad96688b0847d87f070da5af4266</Password>
    <CurrentAddress>Jabotinsky St 1, Tel Aviv</CurrentAddress>
    <Latitude>32.1708832</Latitude>
    <Longitude>34.8288667</Longitude>
    <Role>Manager</Role>
    <IsActive>true</IsActive>
    <MaxDistance>12</MaxDistance>
    <DistanceType>Air</DistanceType>
  </Volunteer>
  <Volunteer>
    <Id>15482979</Id>
    <FullName>Ariel Suli</FullName>
    <Phone>0527665514</Phone>
    <Email>ARI@gmail.com</Email>
    <Password>33851ec6c9c738f6c7c67007939b8baf474cdb22cfd66a09df8064dd22325a3b</Password>
    <CurrentAddress> Hillel , Jerusalem</CurrentAddress>
    <Latitude>31.7815</Latitude>
    <Longitude>35.2206</Longitude>
    <Role>Volunteer</Role>
    <IsActive>true</IsActive>
    <MaxDistance>15</MaxDistance>
    <DistanceType>Air</DistanceType>
  </Volunteer>
  <Volunteer>
    <Id>328218888</Id>
    <FullName>Hadas Levi</FullName>
    <Phone>0527655520</Phone>
    <Email>HHH@gmail.com</Email>
    <Password>e682e5857f599b9bf537da8df4bcb4583a8027e0fbac99fb6deaa9bddbbcb625</Password>
    <CurrentAddress>Jerusalem</CurrentAddress>
    <Latitude>31.7788472</Latitude>
    <Longitude>35.2257856</Longitude>
    <Role>Manager</Role>
    <IsActive>false</IsActive>
    <MaxDistance>12</MaxDistance>
    <DistanceType>Walking</DistanceType>
  </Volunteer>
  <Volunteer>
    <Id>43445345</Id>
    <FullName>Sara Levi</FullName>
    <Phone>0527665515</Phone>
    <Email>S@gmail.com</Email>
    <Password>8e33f44954fd5a56cbee2db0aee5f12f0b73d4fb0647c4251903090ae77118e0</Password>
    <CurrentAddress>Jerusalem</CurrentAddress>
    <Latitude>31.7788472</Latitude>
    <Longitude>35.2257856</Longitude>
    <Role>Manager</Role>
    <IsActive>false</IsActive>
    <MaxDistance>67</MaxDistance>
    <DistanceType>Walking</DistanceType>
  </Volunteer>
  <Volunteer>
    <Id>214407199</Id>
    <FullName>Sara Levin</FullName>
    <Phone>0556701967</Phone>
    <Email>S@gmail.com</Email>
    <Password>8e33f44954fd5a56cbee2db0aee5f12f0b73d4fb0647c4251903090ae77118e0</Password>
    <CurrentAddress>jerusalem</CurrentAddress>
    <Latitude>31.7788472</Latitude>
    <Longitude>35.2257856</Longitude>
    <Role>Manager</Role>
    <IsActive>false</IsActive>
    <MaxDistance>12</MaxDistance>
    <DistanceType>Walking</DistanceType>
  </Volunteer>
  <Volunteer>
    <Id>214778645</Id>
    <FullName>Brian Harris</FullName>
    <Phone>0553219876</Phone>
    <Email>brian@example.com</Email>
    <Password>89e742237cfb302d3eb54801a485abbf2cefb0d20dfb0b29303edbd219eba23b</Password>
    <CurrentAddress>Tel Aviv</CurrentAddress>
    <Latitude>32.0853</Latitude>
    <Longitude>34.7818</Longitude>
    <Role>Volunteer</Role>
    <IsActive>false</IsActive>
    <MaxDistance>23</MaxDistance>
    <DistanceType>Air</DistanceType>
  </Volunteer>
  <Volunteer>
    <Id>214994980</Id>
    <FullName>Avital Attiah</FullName>
    <Phone>0527665515</Phone>
    <Email>avitala5515@gmail.com</Email>
    <Password>2a73892c885b0a8c052ca05c55ce65fdfb066230d9d0932e7a42112227cadfb1</Password>
    <CurrentAddress>haifa</CurrentAddress>
    <Latitude>32.8191218</Latitude>
    <Longitude>34.9983856</Longitude>
    <Role>Manager</Role>
    <IsActive>true</IsActive>
    <MaxDistance>55</MaxDistance>
    <DistanceType>Car</DistanceType>
  </Volunteer>
</ArrayOfVolunteer>